{
  "locations": [
    {
      "id": "l001",
      "name": "袖ケ浦公園",
      "category": "park",
      "lat": 35.4204474,
      "lng": 139.9912456
    },
    {
      "id": "l002",
      "name": "袖ケ浦駅北口広場",
      "category": "park",
      "lat": 35.4354858,
      "lng": 139.9572114
    },
    {
      "id": "l003",
      "name": "道祖公園",
      "category": "park",
      "lat": 35.3821462,
      "lng": 140.0336607
    },
    {
      "id": "l004",
      "name": "袖ケ浦海浜公園",
      "category": "park",
      "lat": 35.4558405,
      "lng": 139.9539727
    },
    {
      "id": "l005",
      "name": "代宿公園",
      "category": "park",
      "lat": 35.4581053,
      "lng": 140.0218775
    },
    {
      "id": "l006",
      "name": "坂戸の森公園",
      "category": "park",
      "lat": 35.4251229,
      "lng": 139.9527703
    },
    {
      "id": "l007",
      "name": "蔵波公園",
      "category": "park",
      "lat": 35.441119,
      "lng": 139.9994026
    },
    {
      "id": "l008",
      "name": "新堰公園",
      "category": "park",
      "lat": 35.4334145,
      "lng": 140.0279767
    },
    {
      "id": "l009",
      "name": "セブンイレブン 袖ケ浦駅北口店",
      "category": "convenience",
      "lat": 35.433925,
      "lng": 139.9576169
    },
    {
      "id": "l010",
      "name": "セブンイレブン 袖ケ浦上泉店",
      "category": "convenience",
      "lat": 35.4096164,
      "lng": 140.0443693
    },
    {
      "id": "l011",
      "name": "セブンイレブン 袖ケ浦市役所北店",
      "category": "convenience",
      "lat": 35.4328706,
      "lng": 139.9534242
    },
    {
      "id": "l012",
      "name": "ローソン袖ケ浦駅前店",
      "category": "convenience",
      "lat": 35.4303384,
      "lng": 139.9582199
    },
    {
      "id": "l013",
      "name": "セブンイレブン 袖ケ浦のぞみ野通り北店",
      "category": "convenience",
      "lat": 35.428695,
      "lng": 140.029226
    },
    {
      "id": "l014",
      "name": "セブンイレブン 袖ケ浦駅前通り店",
      "category": "convenience",
      "lat": 35.428042,
      "lng": 139.96156
    },
    {
      "id": "l015",
      "name": "セブンイレブン 袖ケ浦今井店",
      "category": "convenience",
      "lat": 35.4394483,
      "lng": 139.9746438
    },
    {
      "id": "l016",
      "name": "ミニストップ 袖ケ浦菅野店",
      "category": "convenience",
      "lat": 35.4199389,
      "lng": 139.9577301
    },
    {
      "id": "l017",
      "name": "セブンイレブン 袖ケ浦奈良輪店",
      "category": "convenience",
      "lat": 35.429615,
      "lng": 139.956523
    },
    {
      "id": "l018",
      "name": "ローソン袖ケ浦山小川店",
      "category": "convenience",
      "lat": 35.3881772,
      "lng": 140.0575592
    },
    {
      "id": "l019",
      "name": "生鮮スーパー富分 のぞみ野店",
      "category": "supermarket",
      "lat": 35.4188456,
      "lng": 140.0254526
    },
    {
      "id": "l020",
      "name": "Sendo 袖ケ浦駅前店",
      "category": "supermarket",
      "lat": 35.4322302,
      "lng": 139.9555906
    },
    {
      "id": "l021",
      "name": "スーパーいとう",
      "category": "supermarket",
      "lat": 35.3953388,
      "lng": 140.041399
    },
    {
      "id": "l022",
      "name": "主婦の店 福王台店",
      "category": "supermarket",
      "lat": 35.4251958,
      "lng": 139.9580989
    },
    {
      "id": "l023",
      "name": "主婦の店 長浦店",
      "category": "supermarket",
      "lat": 35.448546,
      "lng": 140.0023625
    },
    {
      "id": "l024",
      "name": "尾張屋 横田店",
      "category": "supermarket",
      "lat": 35.3848682,
      "lng": 140.0239803
    },
    {
      "id": "l025",
      "name": "イオン長浦店",
      "category": "supermarket",
      "lat": 35.4502687,
      "lng": 139.9976567
    },
    {
      "id": "l026",
      "name": "尾張屋 蔵波台店",
      "category": "supermarket",
      "lat": 35.4411428,
      "lng": 140.0008975
    },
    {
      "id": "l027",
      "name": "袖ケ浦駅",
      "category": "station",
      "lat": 35.4321885,
      "lng": 139.9578287
    },
    {
      "id": "l028",
      "name": "太陽食堂",
      "category": "restaurant",
      "lat": 35.4288499,
      "lng": 139.9558029
    },
    {
      "id": "l029",
      "name": "富士食堂",
      "category": "restaurant",
      "lat": 35.4187975,
      "lng": 139.985549
    },
    {
      "id": "l030",
      "name": "鶴屋",
      "category": "restaurant",
      "lat": 35.4355141,
      "lng": 139.9619076
    },
    {
      "id": "l031",
      "name": "ゆき",
      "category": "restaurant",
      "lat": 35.442821,
      "lng": 140.001436
    },
    {
      "id": "l032",
      "name": "デニーズ 袖ケ浦店",
      "category": "restaurant",
      "lat": 35.4277727,
      "lng": 139.9630796
    },
    {
      "id": "l033",
      "name": "サイゼリヤ 袖ケ浦駅前店",
      "category": "restaurant",
      "lat": 35.4326564,
      "lng": 139.9564413
    },
    {
      "id": "l034",
      "name": "夢庵 袖ケ浦店",
      "category": "restaurant",
      "lat": 35.4280222,
      "lng": 139.9633173
    },
    {
      "id": "l035",
      "name": "ガスト 袖ケ浦店",
      "category": "restaurant",
      "lat": 35.4232025,
      "lng": 139.9605336
    },
    {
      "id": "l036",
      "name": "サイゼリヤ 蔵波台店",
      "category": "restaurant",
      "lat": 35.44114,
      "lng": 140.002087
    },
    {
      "id": "l037",
      "name": "あすみ堂",
      "category": "cafe",
      "lat": null,
      "lng": null,
      "address": "袖ケ浦市のぞみ野41-2"
    },
    {
      "id": "l038",
      "name": "居酒屋蔵",
      "category": "restaurant",
      "lat": null,
      "lng": null,
      "address": "袖ケ浦市蔵波台7丁目14-12"
    },
    {
      "id": "l039",
      "name": "魚喜",
      "category": "shop",
      "lat": null,
      "lng": null,
      "address": "袖ケ浦市福王台1-27-11"
    },
    {
      "id": "l040",
      "name": "寿ラーメン",
      "category": "restaurant",
      "lat": null,
      "lng": null,
      "address": "袖ケ浦市坂戸市場1439-8"
    },
    {
      "id": "l041",
      "name": "若奈寿司",
      "category": "restaurant",
      "lat": null,
      "lng": null,
      "address": "袖ケ浦市神納809-8"
    },
    {
      "id": "l042",
      "name": "レストラン菜心味 袖ケ浦駅前店",
      "category": "restaurant",
      "lat": null,
      "lng": null,
      "address": "袖ケ浦市福王台1丁目1-4"
    },
    {
      "id": "l043",
      "name": "藤鮨",
      "category": "restaurant",
      "lat": 35.428694,
      "lng": 139.960391,
      "address": "袖ケ浦市福王台1-13-1"
    },
    {
      "id": "l044",
      "name": "SAPANA袖ヶ浦駅前店",
      "category": "restaurant",
      "lat": null,
      "lng": null,
      "address": "袖ケ浦市袖ケ浦駅前1-39-12"
    },
    {
      "id": "l045",
      "name": "三育フーズストア売店",
      "category": "shop",
      "lat": 35.45279958,
      "lng": 139.9979992,
      "address": "袖ケ浦市長浦1-1-65"
    },
    {
      "id": "l046",
      "name": "tassoの森",
      "category": "shop",
      "lat": 35.420293,
      "lng": 140.044142,
      "address": "袖ケ浦市上泉1197"
    },
    {
      "id": "l047",
      "name": "大衆中華ホサナ",
      "category": "restaurant",
      "lat": null,
      "lng": null,
      "address": "袖ケ浦市蔵波台2-23-23"
    },
    {
      "id": "l048",
      "name": "ゆりの里",
      "category": "shop",
      "lat": null,
      "lng": null,
      "address": "袖ケ浦市飯富1635-1"
    },
    {
      "id": "l049",
      "name": "福原製茶工場",
      "category": "shop",
      "lat": null,
      "lng": null,
      "address": "袖ケ浦市下泉787"
    },
    {
      "id": "l050",
      "name": "山本製茶",
      "category": "shop",
      "lat": null,
      "lng": null,
      "address": "袖ケ浦市川原井1790"
    },
    {
      "id": "l051",
      "name": "ローズヒップ&プランツ",
      "category": "cafe",
      "lat": null,
      "lng": null,
      "address": "袖ケ浦市蔵波2887-1"
    },
    {
      "id": "l052",
      "name": "からあげ大将亭長浦店",
      "category": "restaurant",
      "lat": null,
      "lng": null,
      "address": "袖ケ浦市蔵波台4-12-7"
    },
    {
      "id": "l053",
      "name": "OLLIE SWEETS",
      "category": "cafe",
      "lat": 35.428653,
      "lng": 139.96045,
      "address": "袖ケ浦市福王台1-13-1"
    },
    {
      "id": "l054",
      "name": "オーリーブレッド",
      "category": "cafe",
      "lat": 35.42865661,
      "lng": 139.96047229,
      "address": "袖ケ浦市福王台1-13-1"
    },
    {
      "id": "l055",
      "name": "田中商店",
      "category": "shop",
      "lat": null,
      "lng": null,
      "address": "袖ケ浦市今井2-122"
    },
    {
      "id": "l056",
      "name": "旅人カフェぐりーちね",
      "category": "cafe",
      "lat": 35.373004,
      "lng": 140.033037,
      "address": "袖ケ浦市下根岸285-2"
    },
    {
      "id": "l057",
      "name": "露﨑味噌・糀店",
      "category": "shop",
      "lat": null,
      "lng": null,
      "address": "袖ケ浦市横田4211"
    },
    {
      "id": "l058",
      "name": "天然温泉湯舞音袖ケ浦店",
      "category": "other",
      "lat": null,
      "lng": null,
      "address": "袖ケ浦市袖ケ浦駅前1-39-15"
    },
    {
      "id": "l059",
      "name": "日本料理天麩羅ありはら",
      "category": "restaurant",
      "lat": null,
      "lng": null,
      "address": "袖ケ浦市今井1-1-33"
    },
    {
      "id": "l060",
      "name": "パティスリーキャンジュール",
      "category": "cafe",
      "lat": 35.44147926,
      "lng": 140.00153382,
      "address": "袖ケ浦市蔵波台7-14-12"
    },
    {
      "id": "l061",
      "name": "ヒルカフェ/ヨルイザカヤゴッチ",
      "category": "cafe",
      "lat": null,
      "lng": null,
      "address": "袖ケ浦市袖ケ浦駅前1丁目39-12"
    },
    {
      "id": "l062",
      "name": "ホルモン焼肉てっちゃん",
      "category": "restaurant",
      "lat": null,
      "lng": null,
      "address": "袖ケ浦市奈良輪10"
    },
    {
      "id": "l063",
      "name": "房州魚料理わかせい",
      "category": "restaurant",
      "lat": null,
      "lng": null,
      "address": "袖ケ浦市福王台2-12-16"
    },
    {
      "id": "l064",
      "name": "Resthouse Ayame",
      "category": "restaurant",
      "lat": null,
      "lng": null,
      "address": "袖ケ浦市飯富2360"
    },
    {
      "id": "l065",
      "name": "Rond○Rond",
      "category": "cafe",
      "lat": 35.44494334,
      "lng": 139.98602294,
      "address": "袖ケ浦市蔵波2751-1"
    },
    {
      "id": "l066",
      "name": "garden",
      "category": "restaurant",
      "lat": null,
      "lng": null,
      "address": "袖ケ浦市蔵波台6-1-10"
    },
    {
      "id": "l067",
      "name": "K's curry",
      "category": "restaurant",
      "lat": null,
      "lng": null,
      "address": "袖ケ浦市蔵波台7-14-13"
    },
    {
      "id": "l068",
      "name": "袖ケ浦市外野落花生生産組合",
      "category": "shop",
      "lat": null,
      "lng": null,
      "address": "袖ケ浦市蔵波3108"
    },
    {
      "id": "l069",
      "name": "定度ラーメン",
      "category": "restaurant",
      "lat": null,
      "lng": null,
      "address": "袖ケ浦市上泉1345"
    },
    {
      "id": "l070",
      "name": "JUNSE KIMPPA",
      "category": "restaurant",
      "lat": null,
      "lng": null,
      "address": "袖ケ浦市蔵波10-1"
    },
    {
      "id": "l071",
      "name": "ガウラーベリーかねこ農園",
      "category": "shop",
      "lat": 35.43364243,
      "lng": 140.03426987,
      "address": "袖ケ浦市蔵波3311"
    },
    {
      "id": "l072",
      "name": "あづフラワー",
      "category": "shop",
      "lat": null,
      "lng": null,
      "address": "袖ケ浦市蔵波722"
    },
    {
      "id": "l073",
      "name": "ICHIGOYA・SUN",
      "category": "shop",
      "lat": null,
      "lng": null,
      "address": "袖ケ浦市三箇2088"
    },
    {
      "id": "l074",
      "name": "奥野農園",
      "category": "shop",
      "lat": null,
      "lng": null,
      "address": "袖ケ浦市蔵波1006"
    },
    {
      "id": "l075",
      "name": "上泉農園",
      "category": "shop",
      "lat": null,
      "lng": null,
      "address": "袖ケ浦市上泉1138"
    },
    {
      "id": "l076",
      "name": "麺処霧笛",
      "category": "restaurant",
      "lat": null,
      "lng": null,
      "address": "袖ケ浦市神納1-7-18"
    },
    {
      "id": "l077",
      "name": "インド料理チャダニー",
      "category": "restaurant",
      "lat": null,
      "lng": null,
      "address": "袖ケ浦市蔵波台2-23-1"
    },
    {
      "id": "l078",
      "name": "のうえんカフェ",
      "category": "cafe",
      "lat": null,
      "lng": null,
      "address": "袖ケ浦市上泉1197"
    },
    {
      "id": "l079",
      "name": "おいしいお菓子の店 大原軒",
      "category": "cafe",
      "lat": null,
      "lng": null,
      "address": "袖ケ浦市坂戸市場"
    }
  ]
}